 [
  {
    "phone": "01100788881",
    "name": "رحمة سامح محمد",
    "location": "المسرح",
    "tableNumber": 6,
    "family": "",
    "image": "assets/6.png"
  },
  {
        "phone": "01013101727",
        "name": "دكتور . اسامه النحاس",
        "location": "المسرح",
        "tableNumber": 6,
        "family": "",
        "image": "assets/6.png"
      },
      {
        "phone": "01272638173",
        "name": "احمد سلطان",
        "location": "المسرح",
        "tableNumber": 6,
        "family": "",
        "image": "assets/6.png"
      },
      {
        "phone": "01024860567",
        "name": "دكتور.أشرف عبد العزيز",
        "location": "المسرح",
        "tableNumber": 6,
        "family": "",
        "image": "assets/6.png"
      },
      {
      "phone": "01223685772",
      "name": "يوسف السيد علي",
      "location": "المسرح",
      "tableNumber": 6,
      "family": "أ.عادل",
      "image": "assets/6.png"
    },
    {
      "phone": "01288252650",
      "name": "محمد مصطفى عبد اللطيف",
      "location": "المسرح",
      "tableNumber": 6,
      "family": "أ.عادل",
      "image": "assets/6.png"
    },
    {
      "phone": "01222789829",
      "name": "عادل حسين سليمان",
      "location": "المسرح",
      "tableNumber": 5,
      "family": "أ.عادل",
      "image": "assets/5.png"
    },
    {
      "phone": "01555573643",
      "name": "السيد ابراهيم",
      "location": "المسرح",
      "tableNumber": 7,
      "family": "أ.السيد",
      "image": "assets/7.png"
    },
    {
      "phone": "01200095549",
      "name": "محمود عبدالمنعم",
      "location": "المسرح",
      "tableNumber": 8,
      "family": "أ.محمود",
      "image": "assets/8.png"
    },
    {
      "phone": "01225658289",
      "name": "أميرة السيد صديق",
      "location": "المسرح",
      "tableNumber": 10,
      "family": "أ.أميرة",
      "image": "assets/10.png"
    },
    {
      "phone": "01273003435",
      "name": "منال عادل",
      "location": "الطرقة",
      "tableNumber": 22,
      "family": "أ.منال",
      "image": "assets/22.png"
    },
    {
      "phone": "01207466645",
      "name": "رشا حسين",
      "location": "الطرقة",
      "tableNumber": 21,
      "family": "أ.رشا",
      "image": "assets/21.png"
    },
    {
      "phone": "01118846004",
      "name": "هند أحمد",
      "location": "المسرح",
      "tableNumber": 9,
      "family": "أ.هند",
      "image": "assets/9.png"
    },
    {
      "phone": "01006977041",
      "name": "هيام أحمد",
      "location": "المسرح",
      "tableNumber": 9,
      "family": "أ.هيام",
      "image": "assets/9.png"
    },
    {
      "phone": "01211150194",
      "name": "أمال حسن",
      "location": "الطرقة",
      "tableNumber": 20,
      "family": "أ.أمال",
      "image": "assets/20.png"
    },
    {
      "phone": "01205593309",
      "name": "رنا محمد ",
      "location": "الطرقة",
      "tableNumber": 20,
      "family": "فردي",
      "image": "assets/20.png"
    },
    {
      "phone": "01099639539",
      "name": "ياسمين عادل",
      "location": "الطرقة",
      "tableNumber": 19,
      "family": "أ.ياسمين",
      "image": "assets/19.png"
    },
    {
      "phone": "01224461713",
      "name": "مروة ",
      "location": "الطرقة",
      "tableNumber": 18,
      "family": "أ.مروة",
      "image": "assets/18.png"
    },
    {
      "phone": "01285890331",
      "name": "سميرة زاهر",
      "location": "الطرقة",
      "tableNumber": 18,
      "family": "أ.سميرة",
      "image": "assets/18.png"
    },
    {
      "phone": "01000857566",
      "name": "محمود شعلان",
      "location": "الطرقة",
      "tableNumber": 16,
      "family": "أ.محمود",
      "image": "assets/16.png"
    },
    {
      "phone": "01225137628",
      "name": "حمزة عبدالحليم",
      "location": "الطرقة",
      "tableNumber": 16,
      "family": "أ.حمزة",
      "image": "assets/16.png"
    },
    {
      "phone": "01229159101",
      "name": "كمال فؤاد",
      "location": "المسرح",
      "tableNumber": 11,
      "family": "فردي",
      "image": "assets/11.png"
    },
    {
      "phone": "01279127459",
      "name": "احمد عبدالتواب",
      "location": "الطرقة",
      "tableNumber": "13-14",
      "family": "أ.احمد",
      "image": "assets/13_14.png"
    },
    {
      "phone": "01281527505",
      "name": "ايناس محمد",
      "location": "الطرقة",
      "tableNumber": 15,
      "family": "أ.ايناس",
      "image": "assets/15.png"
    },
    {
      "phone": "01275039162",
      "name": "روضه علي",
      "location": "المسرح",
      "tableNumber": 12,
      "family": "أ.روضه",
      "image": "assets/12.png"
    },
    {
      "phone": "01227500153",
      "name": "منى اسماعيل",
      "location": "المسرح",
      "tableNumber": 12,
      "family": "أ.منى",
      "image": "assets/12.png"
    },
    {
      "phone": "01202195257",
      "name": "احمد عبدالعال",
      "location": "المسرح",
      "tableNumber": 11,
      "family": "أ.احمد",
      "image": "assets/11.png"
    },
    {
      "phone": "01222694491",
      "name": "البدري ",
      "location": "المسرح",
      "tableNumber": 4,
      "family": "فردي",
      "image": "assets/4.png"
    },
    {
      "phone": "01210464888",
      "name": "احمد صبحي",
      "location": "المسرح",
      "tableNumber": 2,
      "family": "فردي",
      "image": "assets/2.png"
    },
    {
      "phone": "01220409082",
      "name": "محمد السيد صادق",
      "location": "المسرح",
      "tableNumber": 11,
      "family": "فردي",
      "image": "assets/11.png"
    },
    {
      "phone": "01202307090",
      "name": "ايمن شاهين",
      "location": "المسرح",
      "tableNumber": 4,
      "family": "أ.ايمن",
      "image": "assets/4.png"
    },
    {
      "phone": "01288357488",
      "name": "امل عزت ",
      "location": "المسرح",
      "tableNumber": 4,
      "family": "فردي",
      "image": "assets/4.png"
    },
    {
      "phone": "01001104953",
      "name": "امل العاصي",
      "location": "المسرح",
      "tableNumber": 1,
      "family": "فردي",
      "image": "assets/1.png"
    },
    {
      "phone": "01010281829",
      "name": "ابراهيم اسماعيل",
      "location": "المسرح",
      "tableNumber": 3,
      "family": "فردي",
      "image": "assets/3.png"
    },
    {
      "phone": "01065072343",
      "name": "رضا",
      "location": "المسرح",
      "tableNumber": 3,
      "family": "فردي",
      "image": "assets/3.png"
    },
    {
      "phone": "01002754137",
      "name": "سند",
      "location": "المسرح",
      "tableNumber": 3,
      "family": "فردي",
      "image": "assets/3.png"
    },
    {
      "phone": "01020982904",
      "name": "احمد",
      "location": "المسرح",
      "tableNumber": 3,
      "family": "فردي",
      "image": "assets/3.png"
    },
    {
      "phone": "01286652587",
      "name": "سحر",
      "location": "المسرح",
      "tableNumber": 3,
      "family": "أ.سحر",
      "image": "assets/3.png"
    },
    {
      "phone": "01228485229",
      "name": "مجدي",
      "location": "المسرح",
      "tableNumber": 3,
      "family": "أ.مجدي",
      "image": "assets/3.png"
    },
    {
      "phone": "01221746414",
      "name": "محمود(ابو علي)",
      "location": "المسرح",
      "tableNumber": 2,
      "family": "فردي",
      "image": "assets/2.png"
    },
    {
      "phone": "01026334222",
      "name": "قناوي",
      "location": "المسرح",
      "tableNumber": 2,
      "family": "فردي",
      "image": "assets/2.png"
    },
    {
      "phone": "01212725123",
      "name": "وليد ابو الخير",
      "location": "المسرح",
      "tableNumber": 2,
      "family": "فردي",
      "image": "assets/2.png"
    },
    {
      "phone": "01210565600",
      "name": "محمد فاروق",
      "location": "المسرح",
      "tableNumber": 2,
      "family": "فردي",
      "image": "assets/2.png"
    },
    {
      "phone": "01226449270",
      "name": "حمدي",
      "location": "المسرح",
      "tableNumber": 2,
      "family": "فردي",
      "image": "assets/2.png"
    },
    {
      "phone": "01285953364",
      "name": "نظمي",
      "location": "الطرقة",
      "tableNumber": 24,
      "family": "أ.نظمي",
      "image": "assets/24.png"
    },
    {
      "phone": "01200581657",
      "name": "وليد محمد",
      "location": "الطرقة",
      "tableNumber": 25,
      "family": "أ.وليد",
      "image": "assets/25.png"
    },
    {
      "phone": "01226846873",
      "name": "ابتسام منير",
      "location": "المسرح",
      "tableNumber": 1,
      "family": "فردي",
      "image": "assets/1.png"
    },
    {
      "phone": "01223569594",
      "name": "محمد اسماعيل",
      "location": "المسرح",
      "tableNumber": 1,
      "family": "فردي",
      "image": "assets/1.png"
    },
    {
      "phone": "01003918908",
      "name": "ايمان السيد",
      "location": "الطرقة",
      "tableNumber": 17,
      "family": "أ.ايمان",
      "image": "assets/17.png"
    },
    {
      "phone": "01227298446",
      "name": "احمد شعبان",
      "location": "المسرح",
      "tableNumber": 4,
      "family": "فردي",
      "image": "assets/4.png"
    },
    {
      "phone": "01229416393",
      "name": "عماد كمال",
      "location": "المسرح",
      "tableNumber": 4,
      "family": "فردي",
      "image": "assets/4.png"
    },
    {
      "phone": "01099342018",
      "name": "مني عبدالعظيم",
      "location": "المسرح",
      "tableNumber": 4,
      "family": "فردي",
      "image": "assets/4.png"
    },
    {
      "phone": "01274677618",
      "name": "روزالين",
      "location": "المسرح",
      "family": "فردي",
      "image": "assets/.png"
    },
    {
      "phone": "01273270231",
      "name": "صباح",
      "location": "المسرح",
      "family": "أ.صباح",
      "image": "assets/.png"
    },
    {
      "phone": "01276630715",
      "name": "هيام قمر",
      "location": "الطرقة",
      "tableNumber": 19,
      "family": "أ.هيام",
      "image": "assets/19.png"
    },
    {
      "phone": "01204103197",
      "name": "غادة عبدالناصر",
      "location": "الطرقة",
      "tableNumber": 15,
      "family": "فردي",
      "image": "assets/15.png"
    },
    {
      "phone": "01149713570",
      "name": "اسراء ",
      "location": "الطرقة",
      "tableNumber": 17,
      "family": "أ.اسراء",
      "image": "assets/17.png"
    },
    {
      "phone": "01223295581",
      "name": "جلال عيد",
      "location": "المسرح",
      "tableNumber": 1,
      "family": "فردي",
      "image": "assets/1.png"
    },
    {
      "phone": "01065050557",
      "name": "سلوى",
      "location": "المسرح",
      "tableNumber": 1,
      "family": "فردي",
      "image": "assets/1.png"
    },
    {
      "phone": "01006963192",
      "name": "احمد فؤاد",
      "location": "المسرح",
      "tableNumber": 1,
      "family": "فردي",
      "image": "assets/1.png"
    },
    {
      "phone": "01282213003",
      "name": "ماجي",
      "location": "المسرح",
      "tableNumber": 17,
      "family": "فردي",
      "image": "assets/17.png"
    },
    {
      "phone": "01275484467",
      "name": "شيرين ",
      "location": "المسرح",
      "tableNumber": 1,
      "family": "فردي",
      "image": "assets/1.png"
    },
    {
      "phone": "01222632038",
      "name": "هاني ",
      "location": "المسرح",
      "tableNumber": 1,
      "family": "فردي",
      "image": "assets/1.png"
    },
    {
      "phone": "01280191780",
      "name": "عبدالله ",
      "location": "المسرح",
      "tableNumber": 1,
      "family": "فردي",
      "image": "assets/1.png"
    },
    {
      "phone": "01006164120",
      "name": "مصطفى",
      "location": "المسرح",
      "tableNumber": 1,
      "family": "فردي",
      "image": "assets/1.png"
    },
    {
      "phone": "01274065847",
      "name": "شريف",
      "location": "المسرح",
      "tableNumber": 1,
      "family": "فردي",
      "image": "assets/1.png"
    },
    {
      "phone": "01223047902",
      "name": "عطية",
      "location": "المسرح",
      "tableNumber": 11,
      "family": "فردي",
      "image": "assets/11.png"
    },
    {
      "phone": "01223086688",
      "name": "حسن عبدالغني",
      "location": "المسرح",
      "tableNumber": 1,
      "family": "فردي",
      "image": "assets/1.png"
    },
    {
      "phone": "01027237294",
      "name": "سارة ",
      "location": "الطرقة",
      "tableNumber": 15,
      "family": "فردي",
      "image": "assets/15.png"
    }
  ]
